{"type":"FeatureCollection","features":[{"type":"Feature","properties":{"label":"Street Market"},"geometry":{"coordinates":[-0.1377587137731382,51.51664215363792],"type":"Point"},"id":0},{"type":"Feature","properties":{"label":"Oxford Market"},"geometry":{"coordinates":[-0.13961554517607055,51.51635512991891],"type":"Point"},"id":1},{"type":"Feature","properties":{"label":"Berners Street"},"geometry":{"coordinates":[-0.13590836842459453,51.5160802791448],"type":"Point"}},{"type":"Feature","properties":{"label":"Newmax Street"},"geometry":{"coordinates":[-0.1347162543143554,51.51627210374579],"type":"Point"}},{"type":"Feature","properties":{"label":"Cambridge st"},"geometry":{"coordinates":[-0.13661019004109676,51.513328146410316],"type":"Point"}},{"type":"Feature","properties":{"label":"UP Rupert st"},"geometry":{"coordinates":[-0.1335810399449997,51.51209580165505],"type":"Point"}},{"type":"Feature","properties":{"label":"King st"},"geometry":{"coordinates":[-0.13164674469376791,51.51231048523246],"type":"Point"}},{"type":"Feature","properties":{"label":"Tichborne Street"},"geometry":{"coordinates":[-0.1340095066589697,51.510053201739396],"type":"Point"}},{"type":"Feature","properties":{"label":"Warwick Street"},"geometry":{"coordinates":[-0.13816406800162895,51.51126946090986],"type":"Point"}},{"type":"Feature","properties":{"label":"Marlborugh mews"},"geometry":{"coordinates":[-0.13961355328777358,51.51489102990749],"type":"Point"}},{"type":"Feature","properties":{"label":"Little Marlborough st"},"geometry":{"coordinates":[-0.13951609996399839,51.51385569811541],"type":"Point"}},{"type":"Feature","properties":{"label":"Brewer street"},"geometry":{"coordinates":[-0.13591251539767768,51.51150112337771],"type":"Point"}},{"type":"Feature","properties":{"label":"Vigo Street"},"geometry":{"coordinates":[-0.1395377541793721,51.510149676807345],"type":"Point"}}]}